start_station_name,start_lat,start_lng,casual,member
2112 W Peterson Ave,41.9912,-87.6836,127.0,372.0
63rd St Beach,41.781,-87.5761,693.0,500.0
900 W Harrison St,41.8748,-87.6498,979.0,6018.0
Aberdeen St & Jackson Blvd,41.8777,-87.6548,1291.0,10740.0
Aberdeen St & Monroe St,41.8804,-87.6555,1274.0,8403.0
Aberdeen St & Randolph St,41.8841,-87.6543,1727.0,8830.0
Ada St & Washington Blvd,41.8828,-87.6612,774.0,6914.0
Adler Planetarium,41.8661,-87.6073,12029.0,4939.0
Albany Ave & 26th St,41.8445,-87.702,79.0,144.0
Albany Ave & Bloomingdale Ave,41.914,-87.7051,1055.0,2843.0
Albany Ave & Montrose Ave,41.961,-87.7059,271.0,753.0
Archer (Damen) Ave & 37th St,41.8267,-87.6831,97.0,363.0
Artesian Ave & Hubbard St,41.8895,-87.6882,511.0,6012.0
Ashland Ave & 13th St,41.8652,-87.6665,152.0,1937.0
Ashland Ave & 50th St,41.803,-87.6647,37.0,52.0
Ashland Ave & 63rd St,41.7794,-87.6648,16.0,51.0
Ashland Ave & Archer Ave,41.8392,-87.6656,188.0,439.0
Ashland Ave & Augusta Blvd,41.8996,-87.6677,602.0,4697.0
Ashland Ave & Belle Plaine Ave,41.9561,-87.6688,509.0,2293.0
Ashland Ave & Blackhawk St,41.9071,-87.6673,973.0,5657.0
Ashland Ave & Chicago Ave,41.896,-87.6677,940.0,4690.0
Ashland Ave & Division St,41.9035,-87.6677,3058.0,16288.0
Ashland Ave & Garfield Blvd,41.7928,-87.6644,10.0,143.0
Ashland Ave & Grace St,41.9507,-87.6687,728.0,4011.0
Ashland Ave & Grand Ave,41.8911,-87.6666,547.0,4030.0
Ashland Ave & Lake St,41.8859,-87.6672,609.0,3741.0
Ashland Ave & McDowell Ave,41.8089,-87.6645,42.0,521.0
Ashland Ave & Pershing Rd,41.8235,-87.6656,64.0,304.0
Ashland Ave & Wellington Ave,41.9361,-87.6698,541.0,3136.0
Ashland Ave & Wrightwood Ave,41.9288,-87.6685,951.0,4318.0
Austin Blvd & Chicago Ave,41.8949,-87.7747,57.0,71.0
Austin Blvd & Lake St,41.8879,-87.7744,142.0,286.0
Austin Blvd & Madison St,41.8803,-87.7745,84.0,103.0
Avers Ave & Belmont Ave,41.9394,-87.7236,305.0,901.0
Avondale Ave & Irving Park Rd,41.9534,-87.732,358.0,1474.0
Bennett Ave & 79th St,41.7518,-87.5785,13.0,29.0
Benson Ave & Church St,42.0482,-87.6835,1127.0,4184.0
Bernard St & Elston Ave,41.9499,-87.7139,107.0,553.0
Bissell St & Armitage Ave,41.9184,-87.6522,2396.0,12966.0
Blackstone Ave & Hyde Park Blvd,41.8026,-87.5904,738.0,2728.0
Blue Island Ave & 18th St,41.8576,-87.6615,785.0,5489.0
Bosworth Ave & Howard St,42.0195,-87.6696,80.0,386.0
Broadway & Argyle St,41.9738,-87.6597,1130.0,4275.0
Broadway & Barry Ave,41.9377,-87.6441,4187.0,13983.0
Broadway & Belmont Ave,41.9401,-87.6455,2759.0,8151.0
Broadway & Berwyn Ave,41.9784,-87.6598,1085.0,4356.0
Broadway & Cornelia Ave,41.9455,-87.6464,3025.0,9450.0
Broadway & Granville Ave,41.9948,-87.6603,1648.0,2811.0
Broadway & Ridge Ave,41.984,-87.6603,932.0,3503.0
Broadway & Sheridan Rd,41.9528,-87.65,1613.0,6892.0
Broadway & Thorndale Ave,41.9897,-87.6601,1403.0,2974.0
Broadway & Waveland Ave,41.9491,-87.6486,2001.0,9089.0
Broadway & Wilson Ave,41.9652,-87.6581,1242.0,6337.0
Buckingham Fountain,41.8765,-87.6205,3951.0,2732.0
Budlong Woods Library,41.9837,-87.6964,202.0,314.0
Burling St (Halsted) & Diversey Pkwy (Temp),41.9331,-87.6478,1357.0,8491.0
Burnham Harbor,41.8563,-87.6133,3444.0,7661.0
California Ave & 21st St,41.8538,-87.6957,179.0,691.0
California Ave & 23rd Pl,41.8491,-87.6951,85.0,809.0
California Ave & 26th St,41.844,-87.6953,46.0,121.0
California Ave & Altgeld St,41.9267,-87.6977,448.0,2097.0
California Ave & Byron St,41.9522,-87.6981,388.0,786.0
California Ave & Cortez St,41.9004,-87.6967,671.0,3565.0
California Ave & Division St,41.903,-87.6975,631.0,1553.0
California Ave & Fletcher St,41.9384,-87.698,537.0,1230.0
California Ave & Francis Pl (Temp),41.9185,-87.6974,96.0,755.0
California Ave & Lake St,41.8845,-87.6963,115.0,650.0
California Ave & Milwaukee Ave,41.9227,-87.6972,1903.0,7170.0
California Ave & Montrose Ave,41.9611,-87.6954,514.0,1352.0
California Ave & North Ave,41.9104,-87.6972,592.0,2679.0
Calumet Ave & 18th St,41.8576,-87.6194,2375.0,5567.0
Calumet Ave & 21st St,41.8542,-87.6192,2038.0,1940.0
Calumet Ave & 33rd St,41.8349,-87.6179,309.0,2801.0
Calumet Ave & 35th St,41.8314,-87.618,227.0,772.0
Calumet Ave & 51st St,41.8023,-87.6181,187.0,491.0
Calumet Ave & 71st St,41.7655,-87.6169,28.0,5.0
Campbell Ave & Fullerton Ave,41.9246,-87.6893,509.0,2060.0
Campbell Ave & Montrose Ave,41.9615,-87.6912,209.0,2233.0
Campbell Ave & North Ave,41.9105,-87.6896,829.0,3668.0
Canal St & Adams St,41.8793,-87.6399,3912.0,51901.0
Canal St & Harrison St,41.8743,-87.6396,289.0,3110.0
Canal St & Jackson Blvd,41.8772,-87.6394,1278.0,9336.0
Canal St & Madison St,41.8821,-87.6398,2724.0,26154.0
Canal St & Monroe St,41.8817,-87.6395,1039.0,11359.0
Canal St & Taylor St,41.8703,-87.6395,1436.0,6291.0
Cannon Dr & Fullerton Ave,41.9268,-87.6344,3644.0,2602.0
Carpenter St & 63rd St,41.7799,-87.6509,8.0,6.0
Carpenter St & Huron St,41.8946,-87.6534,983.0,6364.0
Central Ave & Chicago Ave,41.895,-87.7649,55.0,155.0
Central Ave & Harrison St,41.873,-87.7645,51.0,26.0
Central Ave & Lake St,41.8877,-87.7655,53.0,52.0
Central Ave & Madison St,41.8801,-87.7632,41.0,97.0
Central Park Ave & 24th St,41.8481,-87.7151,45.0,20.0
Central Park Ave & Bloomingdale Ave,41.9142,-87.7168,1069.0,998.0
Central Park Ave & Elbridge Ave,41.9353,-87.7169,265.0,1261.0
Central Park Ave & North Ave,41.9097,-87.7166,268.0,835.0
Central Park Ave & Ogden Ave,41.8542,-87.7154,95.0,148.0
Central Park Blvd & 5th Ave,41.8757,-87.7155,35.0,53.0
Central St & Girard Ave,42.0643,-87.6862,173.0,954.0
Central St Metra,42.0636,-87.6987,253.0,1231.0
Cherry Ave & Blackhawk St,41.9072,-87.6556,148.0,580.0
Chicago Ave & Dempster St,42.0417,-87.6807,457.0,1411.0
Chicago Ave & Sheridan Rd,42.0505,-87.6778,687.0,1300.0
Chicago Ave & Washington St,42.0326,-87.6791,474.0,2278.0
Christiana Ave & Lawrence Ave,41.9684,-87.7118,272.0,896.0
Cicero Ave & Flournoy St,41.8721,-87.7466,10.0,20.0
Cicero Ave & Lake St,41.8868,-87.7453,30.0,60.0
Cicero Ave & Quincy St,41.8776,-87.7454,35.0,20.0
Cityfront Plaza Dr & Pioneer Ct,41.8906,-87.6221,4027.0,10870.0
Claremont Ave & Hirsch St,41.9078,-87.6859,333.0,3002.0
Clarendon Ave & Gordon Ter,41.9579,-87.6495,1650.0,6194.0
Clarendon Ave & Junior Ter,41.961,-87.6496,1596.0,3748.0
Clarendon Ave & Leland Ave,41.968,-87.65,890.0,2590.0
Clark St & 9th St (AMLI),41.8708,-87.6312,772.0,3763.0
Clark St & Armitage Ave,41.9183,-87.6363,6703.0,15194.0
Clark St & Berwyn Ave,41.978,-87.668,1445.0,5562.0
Clark St & Bryn Mawr Ave,41.9836,-87.6692,670.0,3497.0
Clark St & Chicago Ave,41.8968,-87.6309,1935.0,8539.0
Clark St & Columbia Ave,42.0045,-87.6724,144.0,1319.0
Clark St & Drummond Pl,41.9312,-87.6443,3125.0,10085.0
Clark St & Elm St,41.903,-87.6313,4290.0,22164.0
Clark St & Elmdale Ave,41.9905,-87.6698,390.0,2008.0
Clark St & Grace St,41.9508,-87.6592,2334.0,5706.0
Clark St & Ida B Wells Dr,41.8759,-87.6306,960.0,11057.0
Clark St & Jarvis Ave,42.016,-87.675,140.0,583.0
Clark St & Lake St,41.886,-87.6309,2342.0,13497.0
Clark St & Leland Ave,41.9671,-87.6674,715.0,4838.0
Clark St & Lincoln Ave,41.9157,-87.6346,6808.0,13130.0
Clark St & Lunt Ave,42.0091,-87.6742,373.0,2493.0
Clark St & Montrose Ave,41.9616,-87.666,583.0,3895.0
Clark St & Newport St,41.9445,-87.6547,2850.0,6380.0
Clark St & North Ave,41.912,-87.6319,3656.0,5870.0
Clark St & Randolph St,41.8846,-87.6319,2368.0,13638.0
Clark St & Schiller St,41.908,-87.6315,2447.0,11568.0
Clark St & Schreiber Ave,41.9993,-87.6714,286.0,1163.0
Clark St & Touhy Ave,42.0126,-87.6744,51.0,386.0
Clark St & Wellington Ave,41.9365,-87.6475,2124.0,9317.0
Clark St & Winnemac Ave,41.9733,-87.6678,1234.0,6849.0
Clark St & Wrightwood Ave,41.9295,-87.6431,3197.0,12459.0
Clifton Ave & Armitage Ave,41.9182,-87.6569,1347.0,6719.0
Clinton St & 18th St,41.858,-87.6408,405.0,2207.0
Clinton St & Jackson Blvd,41.8781,-87.6398,1251.0,12962.0
Clinton St & Lake St,41.8856,-87.6418,1931.0,21917.0
Clinton St & Madison St,41.8822,-87.6411,3949.0,46142.0
Clinton St & Polk St,41.8715,-87.6409,255.0,1105.0
Clinton St & Roosevelt Rd,41.8671,-87.6411,1203.0,4687.0
Clinton St & Tilden St,41.8759,-87.6408,526.0,6437.0
Clinton St & Washington Blvd,41.8834,-87.6412,2803.0,43553.0
Clybourn Ave & Division St,41.9046,-87.6406,574.0,5523.0
Columbus Dr & Randolph St,41.8847,-87.6195,7908.0,31005.0
Commercial Ave & 83rd St,41.7446,-87.5512,25.0,28.0
Conservatory Dr & Lake St,41.8855,-87.7169,258.0,461.0
Cornell Ave & Hyde Park Blvd,41.8024,-87.5869,1773.0,4497.0
Cornell Dr & Hayes Dr,41.7806,-87.5848,120.0,109.0
Cottage Grove Ave & 43rd St,41.8165,-87.6066,169.0,640.0
Cottage Grove Ave & 47th St,41.8099,-87.6068,260.0,726.0
Cottage Grove Ave & 51st St,41.803,-87.6066,217.0,732.0
Cottage Grove Ave & 63rd St,41.7806,-87.6061,111.0,299.0
Cottage Grove Ave & 67th St,41.7737,-87.6056,34.0,97.0
Cottage Grove Ave & 71st St,41.7657,-87.605,27.0,22.0
Cottage Grove Ave & 78th St,41.7532,-87.605,31.0,47.0
Cottage Grove Ave & 83rd St,41.7434,-87.6048,79.0,30.0
Cottage Grove Ave & Oakwood Blvd,41.823,-87.6071,409.0,386.0
Daley Center Plaza,41.8842,-87.6296,3550.0,30585.0
Damen Ave & 51st St,41.8009,-87.6747,20.0,40.0
Damen Ave & Charleston St,41.9201,-87.6779,920.0,3510.0
Damen Ave & Chicago Ave,41.8958,-87.6772,1348.0,8000.0
Damen Ave & Clybourn Ave,41.9319,-87.6779,562.0,2862.0
Damen Ave & Cortland St,41.916,-87.6773,2089.0,7082.0
Damen Ave & Coulter St,41.8492,-87.6756,53.0,178.0
Damen Ave & Cullerton St,41.855,-87.6757,502.0,1274.0
Damen Ave & Division St,41.9033,-87.6784,1128.0,6862.0
Damen Ave & Foster Ave,41.9756,-87.6795,520.0,3251.0
Damen Ave & Grand Ave,41.8912,-87.6769,695.0,3941.0
Damen Ave & Leland Ave,41.9671,-87.679,721.0,4977.0
Damen Ave & Madison St,41.8814,-87.6749,750.0,1373.0
Damen Ave & Melrose Ave,41.9406,-87.6785,568.0,1837.0
Damen Ave & Pershing Rd,41.8232,-87.6766,107.0,49.0
Damen Ave & Pierce Ave,41.9094,-87.6777,4154.0,15722.0
Damen Ave & Sunnyside Ave,41.9633,-87.6793,413.0,2035.0
Damen Ave & Thomas St (Augusta Blvd),41.9013,-87.6774,888.0,5519.0
Damen Ave & Walnut (Lake) St (*),41.886,-87.677,224.0,1676.0
Damen Ave & Wellington Ave,41.9359,-87.6784,671.0,2942.0
Dayton St & North Ave,41.9106,-87.6494,1612.0,8256.0
Dearborn Pkwy & Delaware Pl,41.899,-87.6299,2832.0,14230.0
Dearborn St & Adams St,41.8794,-87.6298,1751.0,10270.0
Dearborn St & Erie St,41.894,-87.6293,4114.0,20663.0
Dearborn St & Monroe St,41.8813,-87.6295,2416.0,17886.0
Dearborn St & Van Buren St,41.8763,-87.6292,899.0,3896.0
Delano Ct & Roosevelt Rd,41.8675,-87.6322,1431.0,5166.0
Desplaines St & Jackson Blvd,41.8783,-87.6439,1368.0,12994.0
Desplaines St & Kinzie St,41.8887,-87.6444,2657.0,19821.0
Desplaines St & Randolph St,41.8846,-87.6446,1762.0,9876.0
Dodge Ave & Church St,42.0483,-87.6982,207.0,771.0
Dodge Ave & Mulford St,42.0235,-87.6996,114.0,239.0
Dorchester Ave & 49th St,41.8058,-87.5925,149.0,592.0
Dorchester Ave & 63rd St,41.7804,-87.5914,211.0,266.0
Drake Ave & Addison St,41.9473,-87.7176,211.0,1423.0
Drake Ave & Fullerton Ave,41.9244,-87.7154,504.0,1874.0
Drake Ave & Montrose Ave,41.9612,-87.7166,216.0,785.0
DuSable Museum,41.7916,-87.6079,211.0,381.0
Dusable Harbor,41.887,-87.6128,12694.0,4771.0
Eastlake Ter & Rogers Ave,42.0209,-87.6651,363.0,1819.0
Eberhart Ave & 61st St,41.7841,-87.6133,90.0,77.0
Eckhart Park,41.8964,-87.661,805.0,5532.0
Eggleston Ave & 69th St (*),41.7689,-87.6359,8.0,29.0
Elizabeth (May) St & Fulton St,41.8866,-87.658,417.0,3723.0
Elizabeth St & 47th St,41.8084,-87.6565,7.0,68.0
Elizabeth St & 59th St,41.7867,-87.6559,,10.0
Ellis Ave & 53rd St,41.7993,-87.601,533.0,3811.0
Ellis Ave & 55th St,41.7943,-87.6015,1206.0,7697.0
Ellis Ave & 58th St,41.7887,-87.6013,691.0,5056.0
Ellis Ave & 60th St,41.7851,-87.6011,1328.0,6457.0
Ellis Ave & 83rd St,41.7441,-87.599,27.0,31.0
Elmwood Ave & Austin St,42.0258,-87.6841,167.0,794.0
Elston Ave & Wabansia Ave,41.9129,-87.6642,444.0,2211.0
Emerald Ave & 28th St,41.8436,-87.6454,204.0,1929.0
Emerald Ave & 31st St,41.8382,-87.6451,280.0,3121.0
Evans Ave & 75th St,41.7585,-87.6064,15.0,41.0
Evanston Civic Center,42.057,-87.6866,181.0,277.0
Exchange Ave & 79th St,41.7517,-87.5528,20.0,21.0
Fairbanks Ct & Grand Ave,41.8918,-87.6206,5197.0,15464.0
Fairbanks St & Superior St,41.8957,-87.6201,975.0,3979.0
Fairfield Ave & Roosevelt Rd,41.8666,-87.6945,162.0,222.0
Federal St & Polk St,41.8721,-87.6295,2096.0,10145.0
Field Blvd & South Water St,41.8863,-87.6175,3150.0,7350.0
Field Museum,41.8653,-87.6179,7647.0,2423.0
Financial Pl & Ida B Wells Dr,41.875,-87.6331,702.0,5193.0
Fort Dearborn Dr & 31st St,41.8386,-87.6082,4011.0,3547.0
Francisco Ave & Foster Ave,41.9756,-87.7014,325.0,1177.0
Franklin St & Adams St (Temp),41.8794,-87.6355,1233.0,6006.0
Franklin St & Chicago Ave,41.8967,-87.6357,812.0,8191.0
Franklin St & Illinois St,41.891,-87.6355,672.0,4623.0
Franklin St & Jackson Blvd,41.8777,-87.6353,3203.0,16782.0
Franklin St & Lake St,41.8858,-87.6355,1767.0,13768.0
Franklin St & Monroe St,41.8803,-87.6352,3510.0,30945.0
Glenwood Ave & Morse Ave,42.008,-87.6655,600.0,2342.0
Glenwood Ave & Touhy Ave,42.0127,-87.6661,217.0,917.0
Green St & Madison St,41.8819,-87.6488,2381.0,13863.0
Green St & Randolph St,41.8837,-87.6487,3108.0,11031.0
Greenview Ave & Diversey Pkwy,41.9326,-87.6659,874.0,3418.0
Greenview Ave & Fullerton Ave,41.9253,-87.6658,1602.0,5746.0
Greenview Ave & Jarvis Ave,42.016,-87.6686,355.0,1506.0
Greenwood Ave & 47th St,41.8098,-87.5994,416.0,1126.0
Greenwood Ave & 79th St,41.7513,-87.5976,21.0,106.0
HQ QR,41.8899,-87.6803,5.0,
HUBBARD ST BIKE CHECKING (LBS-WH-TEST),41.89,-87.6807,,19.0
Halsted St & 18th St,41.8575,-87.6463,320.0,1995.0
Halsted St & 21st St,41.8538,-87.6466,438.0,1056.0
Halsted St & 35th St,41.8307,-87.6472,168.0,696.0
Halsted St & 37th St,41.8271,-87.6457,69.0,686.0
Halsted St & 47th Pl,41.8081,-87.6456,18.0,231.0
Halsted St & 51st St,41.8018,-87.6452,18.0,13.0
Halsted St & 56th St,41.7929,-87.645,23.0,51.0
Halsted St & 59th St,41.7875,-87.6449,16.0,22.0
Halsted St & 63rd St,41.7794,-87.6446,25.0,153.0
Halsted St & 69th St,41.7691,-87.6446,37.0,42.0
Halsted St & Archer Ave,41.8472,-87.6468,325.0,1660.0
Halsted St & Clybourn Ave,41.9097,-87.6481,1524.0,10287.0
Halsted St & Dickens Ave,41.9199,-87.6488,2052.0,8876.0
Halsted St & Maxwell St,41.8649,-87.6471,985.0,6050.0
Halsted St & North Branch St,41.8994,-87.6485,270.0,1635.0
Halsted St & Polk St,41.8718,-87.6466,840.0,7516.0
Halsted St & Roosevelt Rd,41.8673,-87.6486,667.0,5971.0
Halsted St & Roscoe St,41.9437,-87.649,2641.0,8053.0
Halsted St & Willow St,41.9139,-87.6488,1213.0,6395.0
Halsted St & Wrightwood Ave,41.9291,-87.6491,1585.0,8150.0
Harper Ave & 59th St,41.7879,-87.5883,537.0,2769.0
Hermitage Ave & Polk St,41.8715,-87.6699,315.0,4559.0
Honore St & Division St,41.9031,-87.6739,1582.0,6858.0
Hoyne Ave & 47th St,41.8082,-87.6772,37.0,152.0
Hoyne Ave & Balmoral Ave,41.9799,-87.6819,339.0,1362.0
Humboldt Blvd & Armitage Ave,41.9175,-87.7018,964.0,2869.0
Indiana Ave & 26th St,41.8457,-87.6225,452.0,1969.0
Indiana Ave & 31st St,41.8388,-87.6219,409.0,2576.0
Indiana Ave & 40th St,41.8217,-87.6216,116.0,278.0
Indiana Ave & Roosevelt Rd,41.8679,-87.623,8224.0,13539.0
Jefferson St & Monroe St,41.8804,-87.6427,897.0,7881.0
Jeffery Blvd & 67th St,41.7735,-87.5771,319.0,87.0
Jeffery Blvd & 71st St,41.7666,-87.5764,77.0,153.0
Jeffery Blvd & 76th St,41.7571,-87.5758,43.0,82.0
Karlov Ave & Madison St,41.8809,-87.7279,27.0,83.0
Kedzie Ave & 21st St,41.8535,-87.7051,76.0,355.0
Kedzie Ave & 24th St,41.8482,-87.7054,32.0,82.0
Kedzie Ave & Bryn Mawr Ave,41.9824,-87.7089,255.0,325.0
Kedzie Ave & Chicago Ave,41.8955,-87.7061,146.0,544.0
Kedzie Ave & Foster Ave,41.9757,-87.7093,201.0,764.0
Kedzie Ave & Harrison St,41.8736,-87.7049,36.0,120.0
Kedzie Ave & Lake St,41.8846,-87.7063,168.0,645.0
Kedzie Ave & Leland Ave,41.9667,-87.7081,289.0,967.0
Kedzie Ave & Milwaukee Ave,41.9296,-87.7079,2409.0,6680.0
Kedzie Ave & Palmer Ct,41.9215,-87.7073,637.0,3270.0
Kedzie Ave & Roosevelt Rd,41.8665,-87.7065,67.0,141.0
Kenton Ave & Madison St,41.8807,-87.741,21.0,33.0
Keystone Ave & Fullerton Ave,41.9246,-87.7279,199.0,607.0
Keystone Ave & Montrose Ave,41.9611,-87.729,124.0,466.0
Kilbourn Ave & Irving Park Rd,41.9537,-87.7406,64.0,422.0
Kilbourn Ave & Milwaukee Ave,41.9488,-87.74,186.0,480.0
Kildare Ave & Montrose Ave,41.9611,-87.7357,154.0,278.0
Kimball Ave & Belmont Ave,41.9394,-87.7116,409.0,1294.0
Kimbark Ave & 53rd St,41.7996,-87.5947,1169.0,7412.0
Kingsbury St & Erie St,41.8938,-87.6417,1721.0,17432.0
Kingsbury St & Kinzie St,41.8892,-87.6385,2417.0,30882.0
Knox Ave & Montrose Ave,41.9606,-87.7454,144.0,476.0
Kosciuszko Park,41.9306,-87.7238,261.0,1862.0
Kostner Ave & Adams St,41.8779,-87.7357,7.0,83.0
Kostner Ave & Lake St,41.8859,-87.7354,10.0,11.0
LaSalle Dr & Huron St,41.8949,-87.6323,1693.0,6299.0
LaSalle St & Adams St,41.8793,-87.632,1135.0,5623.0
LaSalle St & Illinois St,41.8908,-87.6317,4103.0,14274.0
LaSalle St & Jackson Blvd,41.8782,-87.6319,2421.0,22849.0
LaSalle St & Washington St,41.8827,-87.6325,1450.0,9894.0
Laflin St & Cullerton St,41.8549,-87.6636,39.0,234.0
Lake Park Ave & 35th St,41.8313,-87.6088,1078.0,1556.0
Lake Park Ave & 47th St,41.8094,-87.5919,830.0,1191.0
Lake Park Ave & 53rd St,41.7995,-87.5865,1402.0,2883.0
Lake Park Ave & 56th St,41.7932,-87.5878,972.0,4563.0
Lake Shore Dr & Belmont Ave,41.9408,-87.6392,5949.0,7932.0
Lake Shore Dr & Diversey Pkwy,41.9326,-87.6364,4775.0,7498.0
Lake Shore Dr & Monroe St,41.881,-87.6167,39685.0,10833.0
Lake Shore Dr & North Blvd,41.9117,-87.6268,19147.0,15835.0
Lake Shore Dr & Ohio St,41.8926,-87.6145,6535.0,8371.0
Lake Shore Dr & Wellington Ave,41.9367,-87.6368,4508.0,8395.0
Lakefront Trail & Bryn Mawr Ave,41.984,-87.6523,4583.0,5345.0
Lakefront Trail & Wilson Ave,41.9658,-87.6454,2507.0,3703.0
Lakeview Ave & Fullerton Pkwy,41.9259,-87.639,5099.0,9653.0
Laramie Ave & Gladys Ave,41.8758,-87.7553,13.0,32.0
Laramie Ave & Kinzie St,41.8878,-87.7555,30.0,42.0
Laramie Ave & Madison St,41.8802,-87.7553,50.0,96.0
Larrabee St & Armitage Ave,41.9181,-87.6437,1583.0,6138.0
Larrabee St & Division St,41.9035,-87.6434,1429.0,8609.0
Larrabee St & Kingsbury St,41.8978,-87.6429,1927.0,21161.0
Larrabee St & Menomonee St,41.9147,-87.6433,503.0,4650.0
Larrabee St & North Ave,41.9102,-87.6435,594.0,3379.0
Larrabee St & Oak St,41.9002,-87.643,773.0,7908.0
Larrabee St & Webster Ave,41.9218,-87.6441,3062.0,10076.0
Latrobe Ave & Chicago Ave,41.8947,-87.7569,23.0,65.0
Leavitt St & Addison St,41.9467,-87.6834,382.0,1301.0
Leavitt St & Archer Ave,41.8288,-87.6806,141.0,303.0
Leavitt St & Armitage Ave,41.9178,-87.6824,688.0,3236.0
Leavitt St & Belmont Ave (*),41.9394,-87.6833,385.0,1342.0
Leavitt St & Chicago Ave,41.8955,-87.682,559.0,3382.0
Leavitt St & Division St (*),41.903,-87.6838,281.0,2454.0
Leavitt St & Lawrence Ave,41.9689,-87.684,360.0,2232.0
Leavitt St & North Ave,41.9102,-87.6823,971.0,4254.0
Lincoln Ave & Addison St,41.9462,-87.6733,352.0,1989.0
Lincoln Ave & Belle Plaine Ave,41.956,-87.6803,750.0,3389.0
Lincoln Ave & Belmont Ave,41.9394,-87.6684,1182.0,5522.0
Lincoln Ave & Diversey Pkwy,41.9322,-87.6586,1501.0,6145.0
Lincoln Ave & Fullerton Ave,41.9259,-87.6493,3006.0,10995.0
Lincoln Ave & Roscoe St,41.9433,-87.671,1263.0,7060.0
Lincoln Ave & Sunnyside Ave,41.963,-87.6848,671.0,3985.0
Lincoln Ave & Waveland Ave,41.9488,-87.6753,563.0,3619.0
Lincoln Ave & Winona St,41.9749,-87.6925,333.0,1271.0
Lincoln Park Conservatory,41.9239,-87.6358,2075.0,1943.0
Lincolnwood Dr & Central St,42.0649,-87.7153,137.0,623.0
Logan Blvd & Elston Ave,41.9295,-87.6842,650.0,3532.0
Loomis St & Archer Ave,41.8416,-87.6574,186.0,1163.0
Loomis St & Jackson Blvd,41.8779,-87.662,481.0,3701.0
Loomis St & Lexington St,41.8722,-87.6615,882.0,12924.0
MLK Jr Dr & 29th St,41.8421,-87.617,747.0,6892.0
MLK Jr Dr & 47th St,41.8099,-87.6163,114.0,273.0
MLK Jr Dr & 56th St,41.7934,-87.6159,55.0,97.0
MLK Jr Dr & 63rd St,41.7801,-87.6159,46.0,82.0
MLK Jr Dr & 83rd St,41.7431,-87.6148,67.0,104.0
MLK Jr Dr & Pershing Rd,41.8246,-87.6168,234.0,819.0
MTL-ECO5.1-01,41.9171,-87.7482,1.0,3.0
Malcolm X College,41.8776,-87.6739,259.0,1257.0
Manor Ave & Leland Ave,41.9659,-87.7008,134.0,1002.0
Maplewood Ave & Peterson Ave,41.9902,-87.6934,95.0,196.0
Marine Dr & Ainslie St,41.9716,-87.6502,1997.0,3272.0
Marshfield Ave & 44th St,41.814,-87.6666,33.0,57.0
Marshfield Ave & 59th St,41.7868,-87.6662,14.0,30.0
Marshfield Ave & Cortland St,41.916,-87.6689,2174.0,12882.0
May St & 69th St,41.7689,-87.6529,10.0,16.0
May St & Cullerton St,41.8551,-87.6541,272.0,1583.0
May St & Taylor St,41.8695,-87.6555,1195.0,6232.0
McClurg Ct & Erie St,41.8945,-87.6179,2926.0,12859.0
McClurg Ct & Illinois St,41.8904,-87.6175,7074.0,13203.0
McCormick Place,41.8514,-87.6188,3679.0,1878.0
Michigan Ave & 14th St,41.8641,-87.6237,1606.0,7334.0
Michigan Ave & 18th St,41.8578,-87.6246,1375.0,8107.0
Michigan Ave & 71st St,41.7653,-87.6217,8.0,5.0
Michigan Ave & 8th St,41.8728,-87.624,9709.0,5434.0
Michigan Ave & Ida B Wells Dr,41.8762,-87.6244,4047.0,4342.0
Michigan Ave & Jackson Blvd,41.8779,-87.6241,7032.0,8641.0
Michigan Ave & Lake St,41.886,-87.6241,5516.0,17324.0
Michigan Ave & Madison St,41.8821,-87.6251,2909.0,8327.0
Michigan Ave & Oak St,41.901,-87.6238,21631.0,14313.0
Michigan Ave & Pearson St,41.8977,-87.6235,5441.0,5546.0
Michigan Ave & Washington St,41.884,-87.6247,12378.0,24845.0
Mies van der Rohe Way & Chestnut St,41.8986,-87.6219,4634.0,9846.0
Mies van der Rohe Way & Chicago Ave,41.8969,-87.6217,3498.0,9083.0
Millard Ave & 26th St,41.8446,-87.7159,65.0,102.0
Millennium Park,41.881,-87.6241,21899.0,12627.0
Milwaukee Ave & Cuyler Ave,41.9545,-87.7496,86.0,485.0
Milwaukee Ave & Grand Ave,41.8916,-87.6484,2067.0,13400.0
Milwaukee Ave & Rockwell St,41.9202,-87.693,787.0,2384.0
Milwaukee Ave & Wabansia Ave,41.9126,-87.6814,2056.0,8064.0
Monticello Ave & Irving Park Rd,41.954,-87.7191,195.0,861.0
Montrose Harbor,41.964,-87.6382,8341.0,5543.0
Morgan Ave & 14th Pl,41.8624,-87.6511,421.0,3681.0
Morgan St & 18th St,41.8581,-87.6511,904.0,3390.0
Morgan St & 31st St,41.8378,-87.6511,373.0,1461.0
Morgan St & Lake St,41.8855,-87.6523,2649.0,15595.0
Morgan St & Pershing Rd,41.8236,-87.6509,15.0,114.0
Morgan St & Polk St,41.8717,-87.651,981.0,12562.0
Museum of Science and Industry,41.7917,-87.5839,2652.0,1040.0
Noble St & Milwaukee Ave,41.9007,-87.6626,866.0,5765.0
Normal Ave & Archer Ave,41.8495,-87.6406,153.0,1018.0
Oakley Ave & Irving Park Rd,41.9543,-87.6861,311.0,1488.0
Oakley Ave & Touhy Ave,42.0123,-87.6882,182.0,266.0
Ogden Ave & Chicago Ave,41.8964,-87.6541,1430.0,8714.0
Ogden Ave & Congress Pkwy,41.875,-87.6733,141.0,1441.0
Ogden Ave & Race Ave,41.8918,-87.6588,834.0,7308.0
Ogden Ave & Roosevelt Rd,41.8665,-87.6847,185.0,1354.0
Orleans St & Chestnut St (NEXT Apts),41.8982,-87.6375,1176.0,6998.0
Orleans St & Elm St,41.9029,-87.6377,384.0,2916.0
Orleans St & Hubbard St,41.89,-87.6366,728.0,5247.0
Orleans St & Merchandise Mart Plaza,41.8882,-87.6364,2602.0,21393.0
Paulina Ave & North Ave,41.9103,-87.6701,1333.0,5647.0
Paulina St & 18th St,41.8579,-87.6687,585.0,2872.0
Paulina St & Flournoy St,41.873,-87.6691,553.0,5151.0
Paulina St & Howard St,42.0192,-87.6736,462.0,2070.0
Paulina St & Montrose Ave,41.9615,-87.6714,529.0,2043.0
Peoria St & Jackson Blvd,41.8776,-87.6496,1469.0,12185.0
Perry Ave & 69th St,41.7693,-87.6282,30.0,85.0
Phillips Ave & 79th St,41.7518,-87.5652,24.0,42.0
Phillips Ave & 83rd St,41.7445,-87.5651,27.0,52.0
Pine Grove Ave & Irving Park Rd,41.9544,-87.648,1773.0,7815.0
Pine Grove Ave & Waveland Ave,41.9493,-87.6463,2994.0,9237.0
Prairie Ave & 43rd St,41.8167,-87.6194,318.0,418.0
Prairie Ave & Garfield Blvd,41.7949,-87.6187,283.0,1075.0
Princeton Ave & 47th St,41.8093,-87.6334,60.0,256.0
Princeton Ave & Garfield Blvd,41.795,-87.6331,45.0,452.0
Pulaski Rd & Congress Pkwy,41.8743,-87.7257,25.0,92.0
Pulaski Rd & Eddy St (Temp),41.9463,-87.731,150.0,538.0
Pulaski Rd & Lake St,41.8854,-87.7265,31.0,94.0
Racine Ave & 13th St,41.8651,-87.657,196.0,893.0
Racine Ave & 15th St,41.8613,-87.6566,239.0,1562.0
Racine Ave & 18th St,41.8582,-87.6565,984.0,3966.0
Racine Ave & 35th St,41.8307,-87.656,137.0,574.0
Racine Ave & 61st St,41.7832,-87.6544,6.0,4.0
Racine Ave & Belmont Ave,41.9397,-87.6589,1924.0,5496.0
Racine Ave & Congress Pkwy,41.8746,-87.657,514.0,5751.0
Racine Ave & Fullerton Ave,41.9256,-87.6584,1393.0,8005.0
Racine Ave & Garfield Blvd,41.7942,-87.6551,62.0,234.0
Racine Ave & Randolph St,41.8841,-87.6569,727.0,4929.0
Racine Ave & Washington Blvd (*),41.8831,-87.657,407.0,4024.0
Racine Ave & Wrightwood Ave,41.9289,-87.659,972.0,4485.0
Rainbow Beach,41.7579,-87.5494,98.0,76.0
Ravenswood Ave & Berteau Ave,41.9579,-87.6736,332.0,2487.0
Ravenswood Ave & Irving Park Rd,41.9547,-87.6739,670.0,3720.0
Ravenswood Ave & Lawrence Ave,41.9691,-87.6742,1499.0,13577.0
Rhodes Ave & 32nd St,41.8362,-87.6135,549.0,1431.0
Richmond St & Diversey Ave,41.9319,-87.7012,564.0,1760.0
Ridge Blvd & Howard St,42.0193,-87.6845,170.0,373.0
Ridge Blvd & Touhy Ave,42.0121,-87.6829,174.0,634.0
Ritchie Ct & Banks St,41.9069,-87.6262,2164.0,6293.0
Rockwell St & Eastwood Ave,41.9659,-87.6936,308.0,1524.0
Rush St & Cedar St,41.9023,-87.6277,3851.0,9142.0
Rush St & Hubbard St,41.8902,-87.6262,1524.0,9569.0
Rush St & Superior St,41.8958,-87.6259,2900.0,11337.0
Sacramento Blvd & Franklin Blvd,41.8905,-87.7026,44.0,509.0
Sangamon St & Washington Blvd,41.8832,-87.6511,660.0,5265.0
Sawyer Ave & Irving Park Rd,41.9536,-87.7093,242.0,714.0
Sedgwick St & Huron St,41.8947,-87.6384,1340.0,13243.0
Sedgwick St & North Ave,41.9114,-87.6387,2361.0,11963.0
Sedgwick St & Schiller St,41.9076,-87.6386,644.0,3314.0
Sedgwick St & Webster Ave,41.9222,-87.6389,2600.0,9328.0
Seeley Ave & Garfield Blvd,41.7941,-87.6755,17.0,4.0
Seeley Ave & Roscoe St,41.9434,-87.6796,727.0,2972.0
Shedd Aquarium,41.8672,-87.6154,20778.0,5860.0
Sheffield Ave & Fullerton Ave,41.9256,-87.6537,3023.0,15195.0
Sheffield Ave & Kingsbury St,41.9105,-87.6531,1626.0,10428.0
Sheffield Ave & Waveland Ave,41.9494,-87.6545,4409.0,7959.0
Sheffield Ave & Webster Ave,41.9215,-87.6538,2149.0,9666.0
Sheffield Ave & Wellington Ave,41.9363,-87.6527,2153.0,10407.0
Sheffield Ave & Willow St,41.9137,-87.6529,1263.0,8163.0
Sheffield Ave & Wrightwood Ave,41.9287,-87.6538,1731.0,7017.0
Sheridan Rd & Buena Ave,41.9585,-87.655,842.0,3758.0
Sheridan Rd & Columbia Ave,42.0046,-87.6614,434.0,1374.0
Sheridan Rd & Greenleaf Ave,42.0106,-87.6624,455.0,1170.0
Sheridan Rd & Irving Park Rd,41.9542,-87.6544,1607.0,10976.0
Sheridan Rd & Lawrence Ave,41.9695,-87.6547,890.0,2685.0
Sheridan Rd & Loyola Ave,42.001,-87.6612,1176.0,2573.0
Sheridan Rd & Montrose Ave,41.9617,-87.6546,1574.0,5973.0
Sheridan Rd & Noyes St (NU),42.0582,-87.6774,720.0,2376.0
Shields Ave & 28th Pl,41.8427,-87.6355,146.0,880.0
Shields Ave & 31st St,41.8385,-87.6354,153.0,1838.0
Shields Ave & 43rd St,41.8162,-87.6348,10.0,19.0
Shore Dr & 55th St,41.7952,-87.5807,2709.0,4729.0
Smith Park (*),41.892,-87.6894,260.0,780.0
South Chicago Ave & 83rd St,41.7439,-87.5752,25.0,10.0
South Shore Dr & 67th St,41.7736,-87.5675,349.0,316.0
South Shore Dr & 71st St,41.7664,-87.5657,372.0,571.0
South Shore Dr & 74th St,41.7622,-87.5593,129.0,197.0
Southport Ave & Belmont Ave,41.9395,-87.6638,1026.0,4734.0
Southport Ave & Clark St,41.9571,-87.6642,440.0,2314.0
Southport Ave & Clybourn Ave,41.9208,-87.6637,1492.0,7086.0
Southport Ave & Irving Park Rd,41.9542,-87.6644,984.0,4767.0
Southport Ave & Roscoe St,41.9437,-87.664,2464.0,10132.0
Southport Ave & Waveland Ave,41.9482,-87.6639,2598.0,8617.0
Southport Ave & Wellington Ave,41.9357,-87.6636,1731.0,8255.0
Southport Ave & Wrightwood Ave,41.9288,-87.6639,1453.0,5393.0
Spaulding Ave & Armitage Ave,41.9171,-87.7102,839.0,2705.0
Spaulding Ave & Division St,41.9027,-87.7092,272.0,666.0
St. Clair St & Erie St,41.8944,-87.6227,4666.0,17717.0
St. Louis Ave & Balmoral Ave,41.9804,-87.7161,181.0,558.0
State St & 19th St,41.8566,-87.6275,764.0,1942.0
State St & 29th St,41.8417,-87.6269,164.0,542.0
State St & 33rd St,41.8347,-87.6258,596.0,5916.0
State St & 35th St,41.8309,-87.628,369.0,2353.0
State St & 54th St,41.7966,-87.6259,32.0,63.0
State St & 76th St,41.757,-87.6246,31.0,43.0
State St & 79th St,41.7508,-87.6244,46.0,200.0
State St & Harrison St,41.8741,-87.6277,1955.0,5942.0
State St & Kinzie St,41.8892,-87.6278,3280.0,15442.0
State St & Pearson St,41.8974,-87.6287,2173.0,9285.0
State St & Pershing Rd,41.823,-87.6266,57.0,166.0
State St & Randolph St,41.8847,-87.6277,3764.0,15933.0
State St & Van Buren St,41.8772,-87.6278,2252.0,8808.0
Stave St & Armitage Ave,41.9177,-87.6914,458.0,2119.0
Stetson Ave & South Water St,41.8868,-87.6223,2390.0,10201.0
Stewart Ave & 63rd St (*),41.7798,-87.6348,3.0,36.0
Stockton Dr & Wrightwood Ave,41.9313,-87.6387,3547.0,7644.0
Stony Island Ave & 64th St,41.7789,-87.5866,156.0,87.0
Stony Island Ave & 67th St,41.7735,-87.5853,143.0,72.0
Stony Island Ave & 71st St,41.7665,-87.5865,82.0,182.0
Stony Island Ave & 75th St,41.7587,-87.5869,44.0,85.0
Stony Island Ave & 82nd St,41.7466,-87.586,34.0,35.0
Stony Island Ave & South Chicago Ave,41.7512,-87.5853,10.0,18.0
Streeter Dr & Grand Ave,41.8923,-87.612,53407.0,14951.0
Talman Ave & Addison St,41.9466,-87.6946,447.0,1965.0
Theater on the Lake,41.9263,-87.6308,15361.0,17295.0
Throop (Loomis) St & Taylor St,41.869,-87.6591,365.0,3699.0
Throop St & 52nd St,41.7997,-87.6572,23.0,22.0
Troy St & Elston Ave,41.9452,-87.7067,365.0,1571.0
Troy St & North Ave,41.9098,-87.7053,514.0,1063.0
Union Ave & Root St,41.8191,-87.6433,86.0,189.0
University Ave & 57th St,41.7915,-87.5999,1655.0,10769.0
University Library (NU),42.0529,-87.6734,581.0,1856.0
Valli Produce - Evanston Plaza,42.0397,-87.6994,111.0,333.0
Vernon Ave & 75th St,41.7584,-87.6141,57.0,88.0
Vernon Ave & 79th St,41.7509,-87.6138,29.0,50.0
Wabash Ave & 16th St,41.8604,-87.6258,1538.0,7873.0
Wabash Ave & 83rd St,41.7433,-87.6228,12.0,27.0
Wabash Ave & 87th St,41.7366,-87.6226,49.0,88.0
Wabash Ave & 9th St,41.8708,-87.6257,2678.0,10221.0
Wabash Ave & Adams St,41.8795,-87.6257,2169.0,9215.0
Wabash Ave & Cermak Rd,41.8526,-87.6265,886.0,2162.0
Wabash Ave & Grand Ave,41.8915,-87.6268,6295.0,18510.0
Wabash Ave & Roosevelt Rd,41.8672,-87.626,3875.0,16323.0
Wabash Ave & Wacker Pl,41.8869,-87.626,4306.0,7770.0
Wacker Dr & Washington St,41.8831,-87.6373,1307.0,14499.0
Wallace St & 35th St,41.8306,-87.6413,239.0,982.0
Walsh Park,41.9146,-87.668,1091.0,2489.0
Warren Park East,42.0046,-87.6807,151.0,767.0
Warren Park West,42.0018,-87.6888,298.0,419.0
Washtenaw Ave & Lawrence Ave,41.969,-87.696,335.0,1540.0
Washtenaw Ave & Ogden Ave,41.8619,-87.6935,207.0,585.0
Wells St & 19th St,41.8568,-87.6339,927.0,1271.0
Wells St & Concord Ln,41.9121,-87.6347,4468.0,19067.0
Wells St & Elm St,41.9032,-87.6343,2559.0,13254.0
Wells St & Evergreen Ave,41.9067,-87.6348,3159.0,11920.0
Wells St & Hubbard St,41.8899,-87.6343,3400.0,17430.0
Wells St & Huron St,41.8947,-87.6344,3156.0,21692.0
Wells St & Polk St,41.8726,-87.6335,1454.0,7266.0
Wells St & Walton St,41.8999,-87.6344,1336.0,6485.0
Wentworth Ave & 24th St (Temp),41.8501,-87.6321,284.0,773.0
Wentworth Ave & 33rd St,41.8345,-87.6318,251.0,1126.0
Wentworth Ave & 35th St,41.8308,-87.6325,487.0,1256.0
Wentworth Ave & 63rd St,41.7801,-87.6297,40.0,99.0
Wentworth Ave & Cermak Rd (Temp),41.853,-87.6306,1293.0,2548.0
Western Ave & 21st St,41.8541,-87.6858,165.0,1031.0
Western Ave & 24th St,41.8485,-87.6851,85.0,484.0
Western Ave & 28th St,41.8415,-87.6851,55.0,161.0
Western Ave & Congress Pkwy,41.8747,-87.6864,317.0,1548.0
Western Ave & Division St,41.9029,-87.6873,852.0,3571.0
Western Ave & Fillmore St (*),41.8686,-87.6862,219.0,2609.0
Western Ave & Granville Ave,41.9942,-87.6894,145.0,673.0
Western Ave & Howard St,42.0189,-87.69,168.0,647.0
Western Ave & Leland Ave,41.9665,-87.6884,882.0,4591.0
Western Ave & Lunt Ave,42.0086,-87.6905,212.0,1095.0
Western Ave & Monroe St,41.8798,-87.6861,277.0,1421.0
Western Ave & Roscoe St,41.943,-87.6873,291.0,2330.0
Western Ave & Walton St,41.8984,-87.6866,874.0,5396.0
Western Ave & Winnebago Ave,41.9155,-87.687,1464.0,7251.0
Western Blvd & 48th Pl,41.8057,-87.6834,59.0,184.0
Wilton Ave & Belmont Ave,41.9402,-87.653,3888.0,14978.0
Wilton Ave & Diversey Pkwy,41.9324,-87.6527,2114.0,13588.0
Winchester (Ravenswood) Ave & Balmoral Ave,41.9798,-87.6775,340.0,1560.0
Winchester Ave & Elston Ave,41.9241,-87.6765,597.0,2415.0
Winthrop Ave & Lawrence Ave,41.9688,-87.6577,795.0,3403.0
Wolcott (Ravenswood) Ave & Montrose Ave,41.9614,-87.6762,417.0,2350.0
Wolcott Ave & Fargo Ave,42.017,-87.6777,40.0,218.0
Wolcott Ave & Polk St,41.8713,-87.6737,582.0,8848.0
Wood St & 35th St,41.8301,-87.6703,85.0,250.0
Wood St & Augusta Blvd,41.8992,-87.6722,483.0,5015.0
Wood St & Chicago Ave (*),41.8956,-87.6721,519.0,4425.0
Wood St & Hubbard St,41.8899,-87.6715,488.0,3468.0
Wood St & Milwaukee Ave,41.9077,-87.6726,1859.0,8538.0
Wood St & Taylor St,41.8692,-87.671,280.0,5741.0
Woodlawn Ave & 55th St,41.7953,-87.5965,608.0,3584.0
Woodlawn Ave & 75th St,41.7592,-87.5958,34.0,16.0
Woodlawn Ave & Lake Park Ave,41.8141,-87.597,304.0,1078.0
Yates Blvd & 75th St,41.7588,-87.5664,48.0,69.0
